[
	{
		"name": "City Tap House",
		"image": "",
		"address": "901 9th St NW, Washington, DC 20001",
		"hours": {
			"monday": "11:30AM-12AM",
            "tuesday": "11:30AM-12AM",
            "wednesday": "11:30AM-12AM",
            "thursday": "11:30AM-1:30AM",
            "friday": "11:30-2:30AM",
            "saturday": "11AM-2:30AM",
            "sunday": "11AM-12AM"
		},
		"phoneNumber": "(202) 733-5333",
		"website": "https://www.citytap.com/location/penn-quarter/",
		"happyHour": {
			"hours": "NA",
			"hhBeerPrice": 5,
			"hhWinePrice": 6
		}
	},
	{
		"name": "Fado Irish Pub",
		"image": "",
		"address": "808 7th St NW, Washington, DC 20001",
		"hours": {
			"monday": "11AM-2AM",
            "tuesday": "11AM-2AM",
            "wednesday": "11AM-2AM",
            "thursday": "11AM-2AM",
            "friday": "11-2AM",
            "saturday": "7:30AM-3AM",
            "sunday": "7:30AM-2AM"
		},
		"phoneNumber": "(202) 789-0066",
		"website": "https://fadoirishpub.com/washington/menus/",
		"happyHour":{
			"hours": "4PM-7PM",
			"hhBeerPrice": 5,
			"hhWinePrice": 7,
			"hhmixedDrink": 8,
			"hhFoodPrice": 6
			}
		},
		{
		"name": "Bar Deco",
		"image": "",
		"address": "812 7th St NW, Washington, DC 20001",
		"hours": {
			"monday": "11:30AM-12AM",
			"tuesday": "11:30AM-12AM",
			"wednesday": "11:30AM-12AM",
			"thursday": "11:30AM-12AM",
			"friday": "11:30AM-1:30AM",
			"saturday": "11AM-10PM",
			"sunday": "11AM-10PM"
		},
		"phoneNumber": "(202) 774-5867",
		"website": "hhttps://www.bardecodc.com/#menus/happy-hour",
		"happyHour":{
			"hours": "3PM-7PM",
			"hhBeerPrice": 5,
			"hhWinePrice": 6,
			"hhmixedDrink": 6,
			"hhFoodPrice": 5
			}
		},
		{
		"name": "Espita Mezcaleria",
		"image": "",
		"address": "1250 9th St NW, Washington, DC 20001",
		"hours": {
			"monday": "11AM–2PM, 4PM–12AM",
			"tuesday": "11AM–2PM, 4PM–12AM",
			"wednesday": "11AM–2PM, 4PM–12AM",
			"thursday": "11AM–2PM, 4PM–12AMM",
			"friday": "11AM–2PM, 4PM–2AM",
			"saturday": "10:30AM–2AM",
			"sunday": "10:30AM–10PM"
		},
		"phoneNumber": "(202) 621-9695",
		"website": "https://www.trycaviar.com/washington-dc/espita-mezcaleria-4038?utm_source=google&utm_medium=places",
		"happyHour":{
			"hours": "4PM-6PM",
			"hhBeerPrice": 6,
			"hhWinePrice": 7,
			"hhmixedDrink": 6,
			"hhFoodPrice": 3.5
			}
		},
		{
		"name": "Capital Burger",
		"image": "",
		"address": "1005 7th St NW, Washington, DC 20001",
		"hours": {
			"monday": "11AM–10PM",
			"tuesday": "11AM–10PM",
			"wednesday": "11AM–10PM",
			"thursday": "11AM–10PM",
			"friday": "11AM–11PM",
			"saturday": "11AM–11PM",
			"sunday": "11AM–10PM"
		},
		"phoneNumber": "(202) 638-0414",
		"website": "https://www.thecapitalburger.com/menu-listing/food?cmpid=br:tcb_ag:ie_ch:loc_ca:TCBGMB_dt:20190131_sn:gmb_gt:washigton-dc-3200_pl:menu_rd:1001",
		"happyHour":{
			"hours": "3PM-6:30PM",
			"hhBeerPrice": 5,
			"hhWinePrice": 7,
			"hhmixedDrink": 7
			}
		},
	{
		"name": "Crimson DC",
		"image": "",
		"address": "627 H St NW, Washington, DC 20001",
		"hours": {
			"monday": "7AM–11:30PM",
			"tuesday": "7AM–1:30AM",
			"wednesday": "7AM–1:30AM",
			"thursday": "7AM–1:30AM",
			"friday": "7AM–2:30AM",
			"saturday": "8AM–12PM",
			"sunday": "8AM–11PM"
		},
		"phoneNumber": "(202) 638-0414",
		"website": "http://places.singleplatform.com/crimson-diner/menu?ref=google",
		"happyHour":{
			"hours": "3PM-6PM",
			"hhBeerPrice": 3,
			"hhWinePrice": 6
			}
		},
	{
		"name": "Cuba Libre",
		"image": "",
		"address": "801 9th St NW suite a, Washington, DC 20001",
		"hours": {
			"monday": "11:30AM–10PM",
			"tuesday": "11:30AM–10PM",
			"wednesday": "11:30AM–10PM",
			"thursday": "11:30AM–11PM",
			"friday": "11:30AM–3AM",
			"saturday": "11:30AM–3AM",
			"sunday": "11:30AM–9PM"
		},
		"phoneNumber": "(202) 408-1600",
		"website": "http://www.cubalibrerestaurant.com/en/washington/menus/happy-hour/",
		"happyHour":{
			"hours": "4PM-7PM",
			"hhBeerPrice": 5,
			"hhWinePrice": 5,
			"hhmixedDrink": 6,
			"hhFoodPrice": 6
			}
		},
	{
		"name": "Sudhouse DC",
		"image": "",
		"address": "1340 U St NW, Washington, DC 20009",
		"hours": {
			"monday": "4PM–2AM",
			"tuesday": "4PM–2AM",
			"wednesday": "4PM–2AM",
			"thursday": "4PM–2AM",
			"friday": "4PM–3AM",
			"saturday": "4PM–3AM",
			"sunday": "2PM–2AM"
		},
		"phoneNumber": "(202) 525-4188",
		"website": "http://sudhousedc.com/hh.11.4.pdf",
		"happyHour":{
			"hours": "4PM-8PM",
			"hhBeerPrice": 5,
			"hhWinePrice": 5,
			"hhmixedDrink": 5,
			"hhFoodPrice": 4
			}
		},
	{
		"name": "Tyber Creek Wine Bar & Kitchen",
		"image": "",
		"address": "84 T St NW, Washington, DC 20001",
		"hours": {
			"monday": "Closed",
			"tuesday": "12PM–10PM",
			"wednesday": "12PM–10PM",
			"thursday": "12PM–10PM",
			"friday": "12PM–11PM",
			"saturday": "11AM–11PM",
			"sunday": "11AM–9PM"
		},
		"phoneNumber": "(202) 827-3664",
		"website": "https://www.tybercreekdc.com/menu/#happy-hour",
		"happyHour":{
			"hours": "5PM-7PM",
			"hhBeerPrice": 5,
			"hhWinePrice": 6,
			"hhmixedDrink": 8,
			"hhFoodPrice": 4
			}
	},
	{
		"name": "Logan Tavern",
		"image": "",
		"address": "1423 P St NW, Washington, DC 20005",
		"hours": {
			"monday": "11:30AM–10:30PM",
			"tuesday": "11:30AM–10:30PM",
			"wednesday": "11:30AM–10:30PM",
			"thursday": "11:30AM–10:30PM",
			"friday": "11:30AM–10:30PM",
			"saturday": "10:30AM–10:30PM",
			"sunday": "10:30AM–10:30PM"
		},
		"phoneNumber": "(202) 332-3710",
		"website": "https://www.logantavern.com/menus/",
		"happyHour":{
			"hours": "3PM-7PM",
			"hhBeerPrice": 4,
			"hhWinePrice": 4.50,
			"hhFoodPrice": 2
			}
	},
	{
		"name": "Right Spot",
		"image": "",
		"address": "1917 9th St NW, Washington, DC 20001",
		"hours": {
			"monday": "11AM–2AM",
			"tuesday": "11AM–2AM",
			"wednesday": "11AM–2AM",
			"thursday": "11AM–2AM",
			"friday": "11AM–3AM",
			"saturday": "11AM–3AM",
			"sunday": "11AM–2AM"
		},
		"phoneNumber": "(202) 408-1600",
		"website": "https://www.rightspotwashington.com/menu.aspx",
		"happyHour":{
			"hours": "4PM-8PM",
			"hhBeerPrice": 5,
			"hhShotsPrice": 5
			}
		},
	{
		"name": "Brasserie Beck",
		"image": "",
		"address": "1101 K St NW, Washington, DC 20005",
		"hours": {
			"monday": "11:30AM–10PM",
			"tuesday": "11:30AM–10PM",
			"wednesday": "11:30AM–10PM",
			"thursday": "11:30AM–10PM",
			"friday": "11:30AM–11:30PM",
			"saturday": "10:30AM–11:30PM",
			"sunday": "11:30AM–10PM"
		},
		"phoneNumber": "(202) 408-1717",
		"website": "http://brasseriebeck.com/washington-dc/menu/happy-hour/",
		"happyHour":{
			"hours": "3PM-7PM",
			"hhBeerPrice": 5,
			"hhWinePrice": 8,
			"hhmixedDrink": 9,
			"hhFoodPrice": 13
			}
	},
	{
		"name": "ChopHouse & Brewery",
		"image": "",
		"address": "509 7th St NW #1, Washington, DC 20004",
		"hours": {
			"monday": "11AM–10PM",
			"tuesday": "11AM–11PM",
			"wednesday": "11AM–11PM",
			"thursday": "11AM–11PM",
			"friday": "11AM–11PM",
			"saturday": "11AM–11PM",
			"sunday": "11AM–10PM"
		},
		"phoneNumber": "(202) 347-3434",
		"website": "http://districtchophouse.com/",
		"happyHour":{
			"hours": "4PM-7PM",
			"hhBeerPrice": 5,
			"hhWinePrice": 5,
			"hhFoodPrice": 8
			}
		}

	]